stationid,City,State,Country,latitude,longitude
1001,Auburn, AL, USA,32.609856,-85.480782
1002,Hoover, AL, USA,33.405746,-86.811546
1003,Decatur, AL, USA,34.603817,-86.985039
1004,Bloomington, MN, USA,44.840797,-93.298279
1005,Utqiagvik, AK, USA,71.290558,-156.788605
1006,Fargo, ND, USA,46.877186,-96.789803